id,name,lng,lat,cityName,lineNames,lineID
BV10013454,苹果园,116.178945,39.925686,北京市,S1线|6号线,900000069871|110100023339
BV11494889,金安桥,116.162586,39.923298,北京市,S1线|6号线|11号线,900000069871|110100023339|900000159716
BV10813547,四道桥,116.13401,39.91603,北京市,S1线,900000069871
BV10813541,桥户营,116.125809,39.912383,北京市,S1线,900000069871
BV10813543,上岸,116.122225,39.905138,北京市,S1线,900000069871
BV10813544,栗园庄,116.123254,39.89578,北京市,S1线,900000069871
BV10813542,小园,116.114443,39.890465,北京市,S1线,900000069871
BV10813546,石厂,116.100334,39.889378,北京市,S1线,900000069871
BV10000295,古城,116.190337,39.90745,北京市,1号线八通线,110100023110
BV10013455,八角游乐园,116.212684,39.907442,北京市,1号线八通线,110100023110
BV10000302,八宝山,116.235948,39.90744,北京市,1号线八通线,110100023110
BV10013456,玉泉路,116.252888,39.907433,北京市,1号线八通线,110100023110
BV10013457,五棵松,116.273987,39.907456,北京市,1号线八通线,110100023110
BV10013458,万寿路,116.294765,39.907474,北京市,1号线八通线,110100023110
BV10000306,公主坟,116.309919,39.907469,北京市,1号线八通线|10号线,110100023110|110100023282
BV10000188,军事博物馆,116.321459,39.907422,北京市,1号线八通线|9号线,110100023110|110100023116
BV10013459,木樨地,116.337583,39.907379,北京市,1号线八通线,110100023110
BV10000309,南礼士路,116.352583,39.907234,北京市,1号线八通线,110100023110
BV10007375,复兴门,116.356866,39.907242,北京市,1号线八通线|2号线,110100023110|110100023098
BV10006791,西单,116.374072,39.907383,北京市,1号线八通线|4号线大兴线,110100023110|110100023076
BV10005941,天安门西,116.391278,39.907472,北京市,1号线八通线,110100023110
BV10006499,天安门东,116.401216,39.90778,北京市,1号线八通线,110100023110
BV10006496,王府井,116.411571,39.908069,北京市,1号线八通线|8号线,110100023110|110100023114
BV10013440,东单,116.41848,39.908325,北京市,1号线八通线|5号线,110100023110|110100023100
BV10013432,建国门,116.435806,39.908501,北京市,1号线八通线|2号线,110100023110|110100023098
BV10013460,永安里,116.450497,39.908454,北京市,1号线八通线,110100023110
BV10013461,国贸,116.461841,39.909104,北京市,1号线八通线|10号线,110100023110|110100023282
BV10013364,大望路,116.475783,39.908287,北京市,1号线八通线|14号线,110100023110|900000028907
BV10000275,四惠,116.495456,39.908749,北京市,1号线八通线,110100023110
BV10007589,四惠东,116.515664,39.908495,北京市,1号线八通线,110100023110
BV10013517,高碑店,116.531421,39.909448,北京市,八通线,110100033086
BV10013518,传媒大学,116.554639,39.909215,北京市,八通线,110100033086
BV10013519,双桥,116.576709,39.910139,北京市,八通线,110100033086
BV10004294,管庄,116.599002,39.90909,北京市,八通线,110100033086
BV10001118,八里桥,116.618658,39.906121,北京市,八通线,110100033086
BV10004143,通州北苑,116.637252,39.903864,北京市,八通线,110100033086
BV10004141,果园,116.646606,39.893393,北京市,八通线,110100033086
BV10001298,九棵树,116.657533,39.890278,北京市,八通线,110100033086
BV10002455,梨园,116.66872,39.883677,北京市,八通线,110100033086
BV10013520,临河里,116.678811,39.875496,北京市,八通线,110100033086
BV10004138,土桥,116.686349,39.871926,北京市,八通线,110100033086
BV11253781,花庄,116.695495,39.856722,北京市,1号线八通线|7号线,110100023110|110100023054
BV10850689,环球度假区,116.679099,39.849152,北京市,1号线八通线|7号线,110100023110|110100023054
BV10013430,积水潭,116.373126,39.948653,北京市,2号线|19号线,110100023098|900000079004
BV10013431,鼓楼大街,116.393776,39.948972,北京市,2号线|8号线,110100023098|110100023114
BV10001936,安定门,116.40824,39.94918,北京市,2号线,110100023098
BV10006563,雍和宫,116.417069,39.949336,北京市,2号线|5号线,110100023098|110100023100
BV10002731,东直门,116.435842,39.941626,北京市,2号线|13号线|首都机场线,110100023098|110100033066|110100023096
BV10001047,东四十条,116.434133,39.933801,北京市,2号线,110100023098
BV10004298,朝阳门,116.434584,39.924499,北京市,2号线|6号线,110100023098|110100023339
BV10006813,北京站,116.427287,39.904983,北京市,2号线,110100023098
BV10013433,崇文门,116.417093,39.901063,北京市,2号线|5号线,110100023098|110100023100
BV10005884,前门,116.397937,39.900192,北京市,2号线|8号线,110100023098|110100023114
BV10013434,和平门,116.384209,39.900098,北京市,2号线,110100023098
BV10013415,宣武门,116.374314,39.899765,北京市,2号线|4号线大兴线,110100023098|110100023076
BV10013435,长椿街,116.363355,39.899433,北京市,2号线,110100023098
BV10001036,阜成门,116.356009,39.923686,北京市,2号线,110100023098
BV10013437,车公庄,116.354357,39.932397,北京市,2号线|6号线,110100023098|110100023339
BV10001595,西直门,116.355426,39.940474,北京市,2号线|4号线大兴线,110100023098|110100023076
BV10003869,天宫院,116.319932,39.670342,北京市,4号线大兴线,110100023076
BV10013422,生物医药基地,116.321662,39.68651,北京市,4号线大兴线,110100023076
BV10010394,义和庄,116.319079,39.712387,北京市,4号线大兴线,110100023076
BV10000372,黄村火车站,116.332611,39.722966,北京市,4号线大兴线,110100023076
BV10002783,黄村西大街,116.332631,39.731769,北京市,4号线大兴线,110100023076
BV10013275,清源路,116.332513,39.742724,北京市,4号线大兴线,110100023076
BV10013421,枣园,116.332204,39.753458,北京市,4号线大兴线,110100023076
BV10013420,高米店南,116.331605,39.763489,北京市,4号线大兴线,110100023076
BV10013419,高米店北,116.330787,39.773547,北京市,4号线大兴线,110100023076
BV10000383,西红门,116.328689,39.7898,北京市,4号线大兴线,110100023076
BV10013418,新宫,116.365549,39.812592,北京市,4号线大兴线|19号线,110100023076|900000079004
BV10008170,公益西桥,116.370796,39.836135,北京市,4号线大兴线,110100023076
BV10013417,角门西,116.371154,39.84585,北京市,4号线大兴线|10号线,110100023076|110100023282
BV10009949,马家堡,116.371361,39.853109,北京市,4号线大兴线,110100023076
BV10006454,北京南站,116.378963,39.865029,北京市,4号线大兴线|14号线,110100023076|900000028907
BV10013416,陶然亭,116.374383,39.87847,北京市,4号线大兴线,110100023076
BV10013379,菜市口,116.374425,39.889296,北京市,4号线大兴线|7号线,110100023076|110100023054
BV10008400,灵境胡同,116.373746,39.915912,北京市,4号线大兴线,110100023076
BV10013414,西四,116.373332,39.924206,北京市,4号线大兴线,110100023076
BV10013413,平安里,116.372883,39.933949,北京市,4号线大兴线|6号线,110100023076|110100023339
BV10013412,新街口,116.367742,39.940667,北京市,4号线大兴线,110100023076
BV10006771,动物园,116.339031,39.93825,北京市,4号线大兴线,110100023076
BV10000252,国家图书馆,116.32519,39.943114,北京市,4号线大兴线|9号线|16号线,110100023076|110100023116|900000062236
BV10000255,魏公村,116.32322,39.957904,北京市,4号线大兴线,110100023076
BV10000258,人民大学,116.321367,39.966956,北京市,4号线大兴线,110100023076
BV10013411,海淀黄庄,116.317564,39.975996,北京市,4号线大兴线|10号线,110100023076|110100023282
BV10013410,中关村,116.316467,39.983991,北京市,4号线大兴线,110100023076
BV10013409,北京大学东门,116.315842,39.992212,北京市,4号线大兴线,110100023076
BV10013408,圆明园,116.310186,39.999662,北京市,4号线大兴线,110100023076
BV10000920,西苑,116.290908,39.998258,北京市,4号线大兴线|16号线,110100023076|900000062236
BV10013407,北宫门,116.277647,40.002373,北京市,4号线大兴线,110100023076
BV10013406,安河桥北,116.269956,40.012195,北京市,4号线大兴线,110100023076
BV10000743,宋家庄,116.428368,39.845849,北京市,5号线|10号线|亦庄线,110100023100|110100023282|110100023102
BV10013438,刘家窑,116.422119,39.857521,北京市,5号线,110100023100
BV10006603,蒲黄榆,116.42372,39.865621,北京市,5号线|14号线,110100023100|900000028907
BV10013439,天坛东门,116.420833,39.882558,北京市,5号线,110100023100
BV10013383,磁器口,116.41994,39.893172,北京市,5号线|7号线,110100023100|110100023054
BV10013441,灯市口,116.417783,39.917113,北京市,5号线,110100023100
BV10013442,东四,116.417493,39.92437,北京市,5号线|6号线,110100023100|110100023339
BV10001045,张自忠路,116.417156,39.933592,北京市,5号线,110100023100
BV10013443,北新桥,116.416884,39.940782,北京市,5号线|首都机场线,110100023100|110100023096
BV10006616,和平里北街,116.418504,39.958734,北京市,5号线,110100023100
BV10001221,和平西桥,116.417975,39.968386,北京市,5号线,110100023100
BV10005412,惠新西街南口,116.417537,39.977121,北京市,5号线|10号线,110100023100|110100023282
BV10006707,惠新西街北口,116.417028,39.987836,北京市,5号线,110100023100
BV10013376,大屯路东,116.417377,40.003841,北京市,5号线|15号线,110100023100|110100023070
BV10013444,北苑路北,116.418089,40.030436,北京市,5号线,110100023100
BV10004309,立水桥南,116.414496,40.041956,北京市,5号线,110100023100
BV10000461,立水桥,116.41235,40.053032,北京市,5号线|13号线,110100023100|110100033066
BV10013445,天通苑南,116.412661,40.066458,北京市,5号线,110100023100
BV10013446,天通苑,116.412759,40.075222,北京市,5号线,110100023100
BV10013447,天通苑北,116.412888,40.083668,北京市,5号线,110100023100
BV10416639,潞城,116.747434,39.902652,北京市,6号线,110100023339
BV10416641,东夏园,116.73385,39.903147,北京市,6号线,110100023339
BV10416644,郝家府,116.717826,39.903195,北京市,6号线,110100023339
BV10416651,北运河东,116.707056,39.903268,北京市,6号线,110100023339
BV10416648,北运河西,116.688358,39.903024,北京市,6号线,110100023339
BV10416643,通州北关,116.661131,39.917962,北京市,6号线,110100023339
BV10416645,物资学院路,116.639316,39.926801,北京市,6号线,110100023339
BV10006882,草房,116.615574,39.924477,北京市,6号线,110100023339
BV10006429,常营,116.599722,39.925696,北京市,6号线,110100023339
BV10013505,黄渠,116.578266,39.924201,北京市,6号线,110100023339
BV10013506,褡裢坡,116.563961,39.924021,北京市,6号线,110100023339
BV10013507,青年路,116.517429,39.923168,北京市,6号线,110100023339
BV10000481,十里堡,116.502045,39.923076,北京市,6号线,110100023339
BV10008284,金台路,116.478115,39.923556,北京市,6号线|14号线,110100023339|900000028907
BV10013489,呼家楼,116.461618,39.923337,北京市,6号线|10号线,110100023339|110100023282
BV10000548,东大桥,116.451657,39.923054,北京市,6号线,110100023339
BV10013392,南锣鼓巷,116.404192,39.933848,北京市,6号线|8号线,110100023339|110100023114
BV10013508,北海北,116.386829,39.933247,北京市,6号线,110100023339
BV10000051,车公庄西,116.344082,39.932466,北京市,6号线,110100023339
BV10000061,白石桥南,116.32568,39.933022,北京市,6号线|9号线,110100023339|110100023116
BV10013509,花园桥,116.310683,39.93234,北京市,6号线,110100023339
BV10013496,慈寿寺,116.295467,39.933268,北京市,6号线|10号线,110100023339|110100023282
BV10013510,海淀五路居,116.276531,39.932584,北京市,6号线,110100023339
BV11103939,田村,116.252914,39.929503,北京市,6号线,110100023339
BV11103937,廖公庄,116.227292,39.932422,北京市,6号线,110100023339
BV11103938,西黄村,116.206932,39.933605,北京市,6号线,110100023339
BV10827741,杨庄,116.187004,39.92785,北京市,6号线,110100023339
BV11303297,高楼金,116.68434,39.863154,北京市,7号线,110100023054
BV11303300,群芳,116.670792,39.863515,北京市,7号线,110100023054
BV11303302,万盛东,116.657379,39.863491,北京市,7号线,110100023054
BV11303299,万盛西,116.63216,39.863328,北京市,7号线,110100023054
BV11303296,黑庄户,116.599119,39.858725,北京市,7号线,110100023054
BV11303301,郎辛庄,116.569826,39.856496,北京市,7号线,110100023054
BV11303298,黄厂,116.553759,39.848979,北京市,7号线,110100023054
BV10013391,焦化厂,116.537247,39.855488,北京市,7号线,110100023054
BV10416577,双合,116.526836,39.859691,北京市,7号线,110100023054
BV10007127,垡头,116.511821,39.860728,北京市,7号线,110100023054
BV10013389,欢乐谷景区,116.500067,39.866505,北京市,7号线,110100023054
BV10013388,南楼梓庄,116.501084,39.874578,北京市,7号线,110100023054
BV10013387,化工,116.503439,39.887369,北京市,7号线,110100023054
BV10000647,百子湾,116.497768,39.89253,北京市,7号线,110100023054
BV10013386,大郊亭,116.487935,39.893183,北京市,7号线,110100023054
BV10006224,九龙山,116.478695,39.893222,北京市,7号线|14号线,110100023054|900000028907
BV10013385,双井,116.461834,39.893512,北京市,7号线|10号线,110100023054|110100023282
BV10013384,广渠门外,116.448998,39.893648,北京市,7号线,110100023054
BV10006633,广渠门内,116.433877,39.893673,北京市,7号线,110100023054
BV10396213,桥湾,116.408464,39.892725,北京市,7号线,110100023054
BV10013381,珠市口,116.398372,39.891334,北京市,7号线|8号线,110100023054|110100023114
BV10013380,虎坊桥,116.384596,39.889486,北京市,7号线,110100023054
BV10396212,广安门内,116.358239,39.889418,北京市,7号线,110100023054
BV10005975,达官营,116.336455,39.889884,北京市,7号线,110100023054
BV10006599,湾子,116.327753,39.889954,北京市,7号线,110100023054
BV10000102,北京西站,116.321218,39.894706,北京市,7号线|9号线,110100023054|110100023116
BV11640690,瀛海,116.448982,39.760713,北京市,8号线,110100023114
BV11640696,德茂,116.441467,39.772649,北京市,8号线,110100023114
BV11640691,五福堂,116.423903,39.785046,北京市,8号线,110100023114
BV11640693,火箭万源,116.418627,39.799287,北京市,8号线,110100023114
BV11640698,东高地,116.409427,39.805074,北京市,8号线,110100023114
BV11640697,和义,116.402073,39.814838,北京市,8号线,110100023114
BV11640689,大红门南,116.401045,39.836715,北京市,8号线,110100023114
BV11640692,海户屯,116.400301,39.851805,北京市,8号线,110100023114
BV11640699,木樨园,116.399839,39.859262,北京市,8号线,110100023114
BV10013368,永定门外,116.399369,39.867435,北京市,8号线|14号线,110100023114|900000028907
BV11640688,天桥,116.398712,39.88192,北京市,8号线,110100023114
BV11640695,金鱼胡同,116.411178,39.915387,北京市,8号线,110100023114
BV11095929,中国美术馆,116.410803,39.923705,北京市,8号线,110100023114
BV10013462,什刹海,116.396219,39.937583,北京市,8号线,110100023114
BV10013463,安德里北街,116.395145,39.957227,北京市,8号线,110100023114
BV10013464,安华桥,116.394655,39.968507,北京市,8号线,110100023114
BV10013465,北土城,116.394193,39.976953,北京市,8号线|10号线,110100023114|110100023282
BV10013466,奥体中心,116.393759,39.985837,北京市,8号线,110100023114
BV10013375,奥林匹克公园,116.391758,40.002207,北京市,8号线|15号线,110100023114|110100023070
BV10009724,森林公园南门,116.3926,40.010122,北京市,8号线,110100023114
BV10013467,林萃桥,116.372998,40.021906,北京市,8号线,110100023114
BV10000769,永泰庄,116.35458,40.037728,北京市,8号线,110100023114
BV10013468,西小口,116.351644,40.046873,北京市,8号线,110100023114
BV10013469,育新,116.347328,40.060039,北京市,8号线,110100023114
BV10007658,霍营,116.360286,40.071857,北京市,8号线|13号线,110100023114|110100033066
BV10004378,回龙观东大街,116.363025,40.081175,北京市,8号线,110100023114
BV10000887,平西府,116.350425,40.090607,北京市,8号线,110100023114
BV10013470,育知路,116.326992,40.087863,北京市,8号线,110100023114
BV10000571,朱辛庄,116.313698,40.104297,北京市,8号线|昌平线,110100023114|110100023118
BV10007779,郭公庄,116.301889,39.814322,北京市,9号线|房山线,110100023116|110100023092
BV10013471,丰台科技园,116.297176,39.825233,北京市,9号线,110100023116
BV10013472,科怡路,116.297432,39.83248,北京市,9号线,110100023116
BV10013473,丰台南路,116.296748,39.840444,北京市,9号线,110100023116
BV10013474,丰台东大街,116.293857,39.855111,北京市,9号线,110100023116
BV10000636,七里庄,116.294292,39.866773,北京市,9号线|14号线,110100023116|900000028907
BV10013475,六里桥,116.302808,39.880239,北京市,9号线|10号线,110100023116|110100023282
BV10000269,六里桥东,116.315142,39.886886,北京市,9号线,110100023116
BV10013476,白堆子,116.325762,39.923818,北京市,9号线,110100023116
BV10013394,巴沟,116.293727,39.974179,北京市,10号线|西郊线,110100023282|110100023060
BV10013485,苏州街,116.306332,39.975642,北京市,10号线,110100023282
BV10001215,知春里,116.328709,39.976334,北京市,10号线,110100023282
BV10001218,知春路,116.33996,39.976476,北京市,10号线,110100023282
BV10013486,西土城,116.354098,39.976549,北京市,10号线,110100023282
BV10000017,牡丹园,116.369844,39.976603,北京市,10号线|19号线,110100023282|900000079004
BV10004058,健德门,116.381353,39.976723,北京市,10号线,110100023282
BV10013487,安贞门,116.405954,39.977005,北京市,10号线,110100023282
BV10006575,芍药居,116.435914,39.977636,北京市,10号线|13号线,110100023282|110100033066
BV10013488,太阳宫,116.447469,39.972678,北京市,10号线,110100023282
BV10000199,三元桥,116.456997,39.961508,北京市,10号线|首都机场线,110100023282|110100023096
BV10000196,亮马桥,116.461794,39.949415,北京市,10号线,110100023282
BV10001223,农业展览馆,116.461724,39.941344,北京市,10号线,110100023282
BV10011994,团结湖,116.461806,39.933747,北京市,10号线,110100023282
BV10013490,金台夕照,116.461743,39.916838,北京市,10号线,110100023282
BV10007162,劲松,116.461325,39.884387,北京市,10号线,110100023282
BV10000543,潘家园,116.460926,39.875387,北京市,10号线,110100023282
BV10013367,十里河,116.457983,39.866417,北京市,10号线|14号线|17号线,110100023282|900000028907|900000099933
BV10007166,分钟寺,116.453976,39.852227,北京市,10号线,110100023282
BV10013491,成寿寺,116.447531,39.845874,北京市,10号线,110100023282
BV10013492,石榴庄,116.414103,39.845905,北京市,10号线,110100023282
BV10000737,大红门,116.399154,39.845383,北京市,10号线,110100023282
BV10013493,角门东,116.385649,39.845135,北京市,10号线,110100023282
BV10000222,草桥,116.351387,39.845869,北京市,10号线|19号线|大兴国际机场线,110100023282|900000079004|900000076659
BV10006086,纪家庙,116.333381,39.844433,北京市,10号线,110100023282
BV10013494,首经贸,116.320202,39.844463,北京市,10号线|房山线,110100023282|110100023092
BV10013495,丰台站,116.30454,39.849639,北京市,10号线,110100023282
BV10003566,泥洼,116.304173,39.858609,北京市,10号线,110100023282
BV10000215,西局,116.303819,39.86677,北京市,10号线|14号线,110100023282|900000028907
BV10002829,莲花桥,116.310347,39.897867,北京市,10号线,110100023282
BV10002778,西钓鱼台,116.298064,39.923481,北京市,10号线,110100023282
BV10012405,车道沟,116.293818,39.947923,北京市,10号线,110100023282
BV10007535,长春桥,116.294255,39.958527,北京市,10号线,110100023282
BV10007538,火器营,116.289058,39.965938,北京市,10号线,110100023282
BV11494890,北辛安,116.164755,39.915456,北京市,11号线,900000159716
BV11494888,新首钢,116.164806,39.90961,北京市,11号线,900000159716
BV10001016,大钟寺,116.345139,39.966612,北京市,13号线,110100033066
BV10006886,五道口,116.337742,39.992894,北京市,13号线,110100033066
BV10013516,上地,116.320193,40.033007,北京市,13号线,110100033066
BV11467455,清河站,116.314494,40.04096,北京市,13号线|昌平线,110100033066|110100023118
BV10007027,西二旗,116.306295,40.053034,北京市,13号线|昌平线,110100033066|110100023118
BV10013515,龙泽,116.319429,40.070882,北京市,13号线,110100033066
BV10013514,回龙观,116.336116,40.0708,北京市,13号线,110100033066
BV10000150,北苑,116.434518,40.042997,北京市,13号线,110100033066
BV10013377,望京西,116.449884,39.995724,北京市,13号线|15号线,110100033066|110100023070
BV10013512,光熙门,116.431761,39.968337,北京市,13号线,110100033066
BV10013511,柳芳,116.432728,39.958157,北京市,13号线,110100033066
BV10416596,善各庄,116.478195,40.02716,北京市,14号线,900000028907
BV10416588,来广营,116.466994,40.020588,北京市,14号线,900000028907
BV10416590,东湖渠,116.467412,40.01067,北京市,14号线,900000028907
BV10013356,望京,116.469409,39.998521,北京市,14号线|15号线,900000028907|110100023070
BV10416592,阜通,116.47174,39.991699,北京市,14号线,900000028907
BV10416591,望京南,116.481634,39.984634,北京市,14号线,900000028907
BV10416595,将台,116.489496,39.971109,北京市,14号线,900000028907
BV10416594,东风北桥,116.485919,39.958375,北京市,14号线,900000028907
BV10416587,枣营,116.474947,39.944132,北京市,14号线,900000028907
BV10416593,朝阳公园,116.478291,39.933492,北京市,14号线,900000028907
BV10007475,平乐园,116.477307,39.885275,北京市,14号线,900000028907
BV10590953,北工大西门,116.477318,39.875437,北京市,14号线,900000028907
BV10012561,方庄,116.440244,39.865868,北京市,14号线,900000028907
BV10590951,景泰,116.411026,39.86525,北京市,14号线,900000028907
BV10590952,景风门,116.365564,39.862731,北京市,14号线|19号线,900000028907|900000079004
BV10013370,西铁营,116.355811,39.861132,北京市,14号线,900000028907
BV10013371,菜户营,116.341978,39.868086,北京市,14号线,900000028907
BV10013372,丽泽商务区,116.331258,39.867831,北京市,14号线,900000028907
BV10013373,东管头,116.3209,39.867769,北京市,14号线,900000028907
BV10006219,大井,116.276061,39.865226,北京市,14号线,900000028907
BV10013400,郭庄子,116.253068,39.864841,北京市,14号线,900000028907
BV10007072,大瓦窑,116.24048,39.85947,北京市,14号线,900000028907
BV10013401,园博园,116.201643,39.861328,北京市,14号线,900000028907
BV10006917,张郭庄,116.187193,39.8581,北京市,14号线,900000028907
BV10002186,俸伯,116.684732,40.132573,北京市,15号线,110100023070
BV10013405,顺义,116.657023,40.129994,北京市,15号线,110100023070
BV10013404,石门,116.641117,40.129802,北京市,15号线,110100023070
BV10002190,南法信,116.609535,40.128478,北京市,15号线,110100023070
BV10009387,后沙峪,116.564211,40.114127,北京市,15号线,110100023070
BV10002223,花梨坎,116.557593,40.084436,北京市,15号线,110100023070
BV10013403,国展,116.555127,40.07003,北京市,15号线,110100023070
BV10002193,孙河,116.5347,40.045113,北京市,15号线,110100023070
BV10011274,马泉营,116.50348,40.033721,北京市,15号线,110100023070
BV10000963,崔各庄,116.492968,40.022201,北京市,15号线,110100023070
BV10013402,望京东,116.487105,40.0032,北京市,15号线,110100023070
BV10416640,关庄,116.430947,40.001134,北京市,15号线,110100023070
BV10416647,安立路,116.407845,40.002619,北京市,15号线,110100023070
BV10416650,北沙滩,116.368143,40.001492,北京市,15号线,110100023070
BV10416642,六道口,116.35267,40.000958,北京市,15号线,110100023070
BV10416646,清华东路西口,116.33953,40.000673,北京市,15号线,110100023070
BV10740312,北安河,116.130428,40.068128,北京市,16号线,900000062236
BV10740317,温阳路,116.161361,40.068516,北京市,16号线,900000062236
BV10711029,稻香湖路,116.188145,40.068936,北京市,16号线,900000062236
BV10740314,屯佃,116.21585,40.068454,北京市,16号线,900000062236
BV10740319,永丰,116.238481,40.071868,北京市,16号线,900000062236
BV10740315,永丰南,116.248154,40.065575,北京市,16号线,900000062236
BV10740313,西北旺,116.257923,40.048703,北京市,16号线,900000062236
BV10740318,马连洼,116.27252,40.032637,北京市,16号线,900000062236
BV10740316,农大南路,116.282272,40.021398,北京市,16号线,900000062236
BV10531973,万泉河桥,116.300157,39.985067,北京市,16号线,900000062236
BV10007288,苏州桥,116.308092,39.962052,北京市,16号线,900000062236
BV10000208,万寿寺,116.309904,39.947773,北京市,16号线,900000062236
BV10013501,甘家口,116.334534,39.923392,北京市,16号线,900000062236
BV11409822,玉渊潭东门,116.334546,39.914042,北京市,16号线,900000062236
BV11031729,周家庄,116.476361,39.856706,北京市,17号线,900000099933
BV11031727,十八里店,116.495847,39.8443,北京市,17号线,900000099933
BV11031728,北神树,116.552752,39.818664,北京市,17号线,900000099933
BV11031725,次渠北,116.57667,39.80939,北京市,17号线,900000099933
BV10011266,次渠,116.591563,39.80355,北京市,17号线|亦庄线,900000099933|110100023102
BV11031726,嘉会湖,116.610278,39.792539,北京市,17号线,900000099933
BV10881788,新发地,116.346333,39.823455,北京市,19号线,900000079004
BV10881789,牛街,116.363481,39.889605,北京市,19号线,900000079004
BV10550714,昌平西山口,116.195371,40.244624,北京市,昌平线,110100023118
BV10013483,十三陵景区,116.207729,40.240255,北京市,昌平线,110100023118
BV10013482,昌平,116.23359,40.22055,北京市,昌平线,110100023118
BV10550716,昌平东关,116.262059,40.221726,北京市,昌平线,110100023118
BV10550715,北邵洼,116.281949,40.222001,北京市,昌平线,110100023118
BV10001633,南邵,116.287534,40.207492,北京市,昌平线,110100023118
BV10013477,沙河高教园,116.280465,40.164666,北京市,昌平线,110100023118
BV10000338,沙河,116.288865,40.148278,北京市,昌平线,110100023118
BV10013478,巩华城,116.293979,40.1309,北京市,昌平线,110100023118
BV10000877,生命科学园,116.29423,40.09479,北京市,昌平线,110100023118
BV10877516,大兴新城,116.365522,39.735583,北京市,大兴国际机场线,900000076659
BV11146181,大兴机场,116.416725,39.511375,北京市,大兴国际机场线,900000076659
BV10561755,阎村东,116.100817,39.729028,北京市,房山线|燕房线,110100023092|900000029622
BV10003977,苏庄,116.125306,39.723188,北京市,房山线,110100023092
BV10013427,良乡南关,116.140804,39.723202,北京市,房山线,110100023092
BV10003994,良乡大学城西,116.156282,39.723157,北京市,房山线,110100023092
BV10003965,良乡大学城,116.176541,39.723159,北京市,房山线,110100023092
BV10003967,良乡大学城北,116.18348,39.729906,北京市,房山线,110100023092
BV10013426,广阳城,116.184985,39.74793,北京市,房山线,110100023092
BV10001096,篱笆房,116.189486,39.760636,北京市,房山线,110100023092
BV10013425,长阳,116.212692,39.763871,北京市,房山线,110100023092
BV10013424,稻田,116.21884,39.794885,北京市,房山线,110100023092
BV10013423,大葆台,116.291681,39.80781,北京市,房山线,110100023092
BV10563755,白盆窑,116.313391,39.81959,北京市,房山线,110100023092
BV10563754,花乡东桥,116.32016,39.829272,北京市,房山线,110100023092
BV10562654,东管头南,116.321319,39.852631,北京市,房山线,110100023092
BV10009415,3号航站楼,116.615583,40.052657,北京市,首都机场线,110100023096
BV10013428,2号航站楼,116.592808,40.079311,北京市,首都机场线,110100023096
BV10968850,颐和园西门,116.263248,39.985697,北京市,西郊线,110100023060
BV10968847,茶棚,116.2481,39.982113,北京市,西郊线,110100023060
BV10968866,万安,116.231977,39.984001,北京市,西郊线,110100023060
BV10968849,植物园,116.214853,39.993582,北京市,西郊线,110100023060
BV10968848,香山,116.204491,39.994056,北京市,西郊线,110100023060
BV10420734,紫草坞,116.08672,39.724606,北京市,燕房线,900000029622
BV10420737,阎村,116.080165,39.716731,北京市,燕房线,900000029622
BV10420735,星城,116.06137,39.713681,北京市,燕房线,900000029622
BV10881795,大石河东,116.039906,39.709893,北京市,燕房线,900000029622
BV10420736,马各庄,116.016606,39.705103,北京市,燕房线,900000029622
BV10420727,饶乐府,116.006103,39.701471,北京市,燕房线,900000029622
BV10420731,房山城关,115.989599,39.706061,北京市,燕房线,900000029622
BV10420733,燕山,115.973395,39.719615,北京市,燕房线,900000029622
BV10011446,肖村,116.448364,39.834217,北京市,亦庄线,110100023102
BV10012008,小红门,116.459226,39.827951,北京市,亦庄线,110100023102
BV10000335,旧宫,116.460789,39.80691,北京市,亦庄线,110100023102
BV10013453,亦庄桥,116.480307,39.803011,北京市,亦庄线,110100023102
BV10013452,亦庄文化园,116.490632,39.80689,北京市,亦庄线,110100023102
BV10013451,万源街,116.505403,39.802971,北京市,亦庄线,110100023102
BV10003511,荣京东街,116.513321,39.793189,北京市,亦庄线,110100023102
BV10013450,荣昌东街,116.521688,39.782832,北京市,亦庄线,110100023102
BV10007921,同济南路,116.539901,39.772962,北京市,亦庄线,110100023102
BV10013449,经海路,116.562321,39.783673,北京市,亦庄线,110100023102
BV10013448,次渠南,116.581357,39.795118,北京市,亦庄线,110100023102
BV10013399,亦庄火车站,116.601913,39.812607,北京市,亦庄线,110100023102
BV10249978,罗湖,114.118666,22.532083,深圳市,1号线/罗宝线,440300024063
BV10243546,国贸,114.118909,22.53968,深圳市,1号线/罗宝线,440300024063
BV10249964,老街,114.116939,22.544232,深圳市,1号线/罗宝线|3号线/龙岗线,440300024063|440300024060
BV10246013,大剧院,114.107811,22.5418,深圳市,1号线/罗宝线|2号线/8号线,440300024063|440300024076
BV10245558,科学馆,114.095173,22.540618,深圳市,1号线/罗宝线|6号线,440300024063|440300024046
BV10249909,华强路,114.085133,22.540459,深圳市,1号线/罗宝线,440300024063
BV10243519,岗厦,114.06819,22.534854,深圳市,1号线/罗宝线|10号线,440300024063|900000055265
BV10243493,会展中心,114.061101,22.534769,深圳市,1号线/罗宝线|4号线/龙华线,440300024063|440300024074
BV10248569,购物公园,114.054581,22.534655,深圳市,1号线/罗宝线|3号线/龙岗线,440300024063|440300024060
BV10243468,香蜜湖,114.038637,22.538887,深圳市,1号线/罗宝线,440300024063
BV10249928,车公庙,114.02583,22.536247,深圳市,1号线/罗宝线|7号线/西丽线|9号线/梅林线|11号线/机场线,440300024063|440300024050|440300024054|440300024056
BV10243704,竹子林,114.013917,22.533357,深圳市,1号线/罗宝线,440300024063
BV10249977,侨城东,113.996651,22.532406,深圳市,1号线/罗宝线,440300024063
BV10249976,华侨城,113.985369,22.533489,深圳市,1号线/罗宝线,440300024063
BV10242356,世界之窗,113.974216,22.5369,深圳市,1号线/罗宝线|2号线/8号线,440300024063|440300024076
BV10244044,白石洲,113.967048,22.539604,深圳市,1号线/罗宝线,440300024063
BV10249975,高新园,113.953842,22.540236,深圳市,1号线/罗宝线,440300024063
BV10249974,深大,113.944173,22.538667,深圳市,1号线/罗宝线,440300024063
BV10249851,桃园,113.924857,22.532357,深圳市,1号线/罗宝线,440300024063
BV10249973,大新,113.915072,22.532232,深圳市,1号线/罗宝线,440300024063
BV10249972,鲤鱼门,113.903079,22.532005,深圳市,1号线/罗宝线,440300024063
BV10249931,前海湾,113.897932,22.537121,深圳市,1号线/罗宝线|5号线/环中线|11号线/机场线,440300024063|440300024058|440300024056
BV10249971,新安,113.894625,22.547468,深圳市,1号线/罗宝线,440300024063
BV10249947,宝安中心,113.887233,22.554575,深圳市,1号线/罗宝线|5号线/环中线,440300024063|440300024058
BV10249970,宝体,113.880641,22.560741,深圳市,1号线/罗宝线,440300024063
BV10249969,坪洲,113.870711,22.568908,深圳市,1号线/罗宝线,440300024063
BV10249968,西乡,113.863048,22.575149,深圳市,1号线/罗宝线,440300024063
BV10242458,固戍,113.846792,22.601363,深圳市,1号线/罗宝线,440300024063
BV10244581,后瑞,113.835449,22.628835,深圳市,1号线/罗宝线,440300024063
BV10249071,机场东,113.822634,22.647001,深圳市,1号线/罗宝线,440300024063
BV10249984,赤湾,113.897525,22.479227,深圳市,2号线/8号线|5号线/环中线,440300024076|440300024058
BV10249985,蛇口港,113.912331,22.476626,深圳市,2号线/8号线,440300024076
BV10244034,海上世界,113.915111,22.485101,深圳市,2号线/8号线,440300024076
BV10249986,水湾,113.919686,22.488389,深圳市,2号线/8号线,440300024076
BV10244079,东角头,113.931149,22.486325,深圳市,2号线/8号线,440300024076
BV10249987,湾厦,113.938604,22.493353,深圳市,2号线/8号线,440300024076
BV10249988,海月,113.937715,22.500409,深圳市,2号线/8号线,440300024076
BV10249989,登良,113.937602,22.509146,深圳市,2号线/8号线,440300024076
BV10249990,后海,113.942498,22.518422,深圳市,11号线/机场线|2号线/8号线,440300024056|440300024076
BV10249991,科苑,113.946195,22.527019,深圳市,2号线/8号线,440300024076
BV10249992,红树湾,113.968432,22.525142,深圳市,2号线/8号线,440300024076
BV10249993,侨城北,113.989148,22.543992,深圳市,2号线/8号线,440300024076
BV10249994,深康,113.998846,22.546456,深圳市,2号线/8号线,440300024076
BV10249904,安托山,114.006236,22.548785,深圳市,7号线/西丽线|2号线/8号线,440300024050|440300024076
BV10249995,侨香,114.014378,22.549784,深圳市,2号线/8号线,440300024076
BV10249996,香蜜,114.023851,22.552772,深圳市,2号线/8号线,440300024076
BV10243787,香梅北,114.032716,22.55386,深圳市,2号线/8号线,440300024076
BV10249926,景田,114.043343,22.553419,深圳市,9号线/梅林线|2号线/8号线,440300024054|440300024076
BV10249997,莲花西,114.050034,22.546668,深圳市,2号线/8号线,440300024076
BV10249929,福田,114.052879,22.540087,深圳市,3号线/龙岗线|11号线/机场线|2号线/8号线,440300024060|440300024056|440300024076
BV10243488,市民中心,114.061192,22.541744,深圳市,4号线/龙华线|2号线/8号线,440300024074|440300024076
BV10249998,岗厦北,114.068982,22.540858,深圳市,2号线/8号线,440300024076
BV10243650,华强北,114.085413,22.544441,深圳市,7号线/西丽线|2号线/8号线,440300024050|440300024076
BV10249999,燕南,114.092561,22.544541,深圳市,2号线/8号线,440300024076
BV10250000,湖贝,114.125437,22.544287,深圳市,2号线/8号线,440300024076
BV10243876,黄贝岭,114.136332,22.546095,深圳市,5号线/环中线|2号线/8号线,440300024058|440300024076
BV10249914,新秀,114.148765,22.547688,深圳市,2号线/8号线,440300024076
BV10677095,莲塘口岸,114.155585,22.553524,深圳市,2号线/8号线,440300024076
BV10677096,仙湖路,114.166405,22.564065,深圳市,2号线/8号线,440300024076
BV10242475,莲塘,114.174291,22.564118,深圳市,2号线/8号线,440300024076
BV10684317,梧桐山南,114.183207,22.55785,深圳市,2号线/8号线,440300024076
BV10249915,沙头角,114.223195,22.554232,深圳市,2号线/8号线,440300024076
BV10244749,海山,114.237711,22.555537,深圳市,2号线/8号线,440300024076
BV10249916,盐田港西,114.246899,22.562536,深圳市,2号线/8号线,440300024076
BV10684318,深外高中,114.244559,22.584031,深圳市,2号线/8号线,440300024076
BV10684315,盐田路,114.256321,22.589721,深圳市,2号线/8号线,440300024076
BV10793836,福保,114.055586,22.507884,深圳市,3号线/龙岗线,440300024060
BV10249967,益田,114.050987,22.516287,深圳市,3号线/龙岗线,440300024060
BV10243850,石厦,114.053616,22.523708,深圳市,3号线/龙岗线|7号线/西丽线,440300024060|440300024050
BV10243648,少年宫,114.06017,22.548627,深圳市,3号线/龙岗线|4号线/龙华线,440300024060|440300024074
BV10249966,莲花村,114.067829,22.548646,深圳市,3号线/龙岗线|10号线,440300024060|900000055265
BV10249910,华新,114.086654,22.548981,深圳市,3号线/龙岗线|7号线/西丽线,440300024060|440300024050
BV10249965,通新岭,114.096273,22.549126,深圳市,3号线/龙岗线|6号线,440300024060|440300024046
BV10249921,红岭,114.104584,22.54838,深圳市,3号线/龙岗线|9号线/梅林线,440300024060|440300024054
BV10249963,晒布,114.122664,22.549238,深圳市,3号线/龙岗线,440300024060
BV10249962,翠竹,114.129883,22.556188,深圳市,3号线/龙岗线,440300024060
BV10246144,田贝,114.130052,22.56728,深圳市,3号线/龙岗线|7号线/西丽线,440300024060|440300024050
BV10246345,水贝,114.124974,22.573988,深圳市,3号线/龙岗线,440300024060
BV10243477,草埔,114.1165,22.584447,深圳市,3号线/龙岗线,440300024060
BV10249935,布吉,114.121571,22.601765,深圳市,3号线/龙岗线|5号线/环中线,440300024060|440300024058
BV10249961,木棉湾,114.130293,22.606997,深圳市,3号线/龙岗线,440300024060
BV10249960,大芬,114.138364,22.614191,深圳市,3号线/龙岗线,440300024060
BV10249959,丹竹头,114.148054,22.619752,深圳市,3号线/龙岗线,440300024060
BV10249958,六约,114.180646,22.634322,深圳市,3号线/龙岗线,440300024060
BV10249957,塘坑,114.192725,22.639179,深圳市,3号线/龙岗线,440300024060
BV10249956,横岗,114.208994,22.648442,深圳市,3号线/龙岗线,440300024060
BV10249955,永湖,114.218042,22.658995,深圳市,3号线/龙岗线,440300024060
BV10249954,荷坳,114.22431,22.673079,深圳市,3号线/龙岗线,440300024060
BV10249953,大运,114.228163,22.68572,深圳市,3号线/龙岗线,440300024060
BV10249952,爱联,114.234423,22.697495,深圳市,3号线/龙岗线,440300024060
BV10249951,吉祥,114.244318,22.709488,深圳市,3号线/龙岗线,440300024060
BV10243745,龙城广场,114.254592,22.716915,深圳市,3号线/龙岗线,440300024060
BV10249950,南联,114.265531,22.721967,深圳市,3号线/龙岗线,440300024060
BV10249875,双龙,114.277422,22.728806,深圳市,3号线/龙岗线,440300024060
BV10243512,福田口岸,114.067321,22.516887,深圳市,4号线/龙华线|10号线,440300024074|900000055265
BV10249907,福民,114.065915,22.523226,深圳市,4号线/龙华线|7号线/西丽线|10号线,440300024074|440300024050|900000055265
BV10245550,莲花北,114.059402,22.560538,深圳市,4号线/龙华线,440300024074
BV10243815,上梅林,114.05944,22.570462,深圳市,4号线/龙华线|9号线/梅林线,440300024074|440300024054
BV10249983,民乐,114.048809,22.594144,深圳市,4号线/龙华线,440300024074
BV10249982,白石龙,114.042431,22.601505,深圳市,4号线/龙华线,440300024074
BV10244305,深圳北站,114.030298,22.610496,深圳市,4号线/龙华线|5号线/环中线|6号线,440300024074|440300024058|440300024046
BV10249884,红山,114.023465,22.621886,深圳市,4号线/龙华线|6号线,440300024074|440300024046
BV10249885,上塘,114.012808,22.637134,深圳市,4号线/龙华线,440300024074
BV10249981,龙胜,114.01201,22.644739,深圳市,4号线/龙华线,440300024074
BV10249980,龙华,114.022419,22.651629,深圳市,4号线/龙华线,440300024074
BV10249979,清湖,114.036538,22.664085,深圳市,4号线/龙华线,440300024074
BV10877299,清湖北,114.040417,22.672087,深圳市,4号线/龙华线,440300024074
BV10877294,竹村,114.040309,22.686728,深圳市,4号线/龙华线,440300024074
BV10877293,茜坑,114.041087,22.697256,深圳市,4号线/龙华线,440300024074
BV10877296,长湖,114.044796,22.710764,深圳市,4号线/龙华线,440300024074
BV10877297,观澜,114.054771,22.715172,深圳市,4号线/龙华线,440300024074
BV10877295,松元厦,114.064878,22.720557,深圳市,4号线/龙华线,440300024074
BV10877300,观澜湖,114.076271,22.721616,深圳市,4号线/龙华线,440300024074
BV10877298,牛湖,114.089254,22.724608,深圳市,4号线/龙华线,440300024074
BV10868017,荔湾,113.893485,22.497821,深圳市,5号线/环中线,440300024058
BV10868018,铁路公园,113.889969,22.502908,深圳市,5号线/环中线,440300024058
BV10868015,妈湾,113.885929,22.507904,深圳市,5号线/环中线,440300024058
BV10868014,前湾公园,113.889552,22.516108,深圳市,5号线/环中线,440300024058
BV10724147,前湾,113.895809,22.522332,深圳市,9号线/梅林线,440300024054
BV10868016,桂湾,113.897944,22.532358,深圳市,5号线/环中线,440300024058
BV10249949,临海,113.889323,22.54416,深圳市,5号线/环中线,440300024058
BV10249948,宝华,113.88509,22.549635,深圳市,5号线/环中线,440300024058
BV10249946,翻身,113.893232,22.55969,深圳市,5号线/环中线,440300024058
BV10249853,灵芝,113.904158,22.568964,深圳市,5号线/环中线,440300024058
BV10249945,洪浪北,113.910585,22.574543,深圳市,5号线/环中线,440300024058
BV10249944,兴东,113.919013,22.581822,深圳市,5号线/环中线,440300024058
BV10243933,留仙洞,113.943543,22.580534,深圳市,5号线/环中线,440300024058
BV10249901,西丽,113.954396,22.580677,深圳市,5号线/环中线|7号线/西丽线,440300024058|440300024050
BV10249943,大学城,113.965307,22.581946,深圳市,5号线/环中线,440300024058
BV10249942,塘朗,113.999666,22.590097,深圳市,5号线/环中线,440300024058
BV10249941,长岭陂,114.010275,22.599395,深圳市,5号线/环中线,440300024058
BV10249940,民治,114.04085,22.617545,深圳市,5号线/环中线,440300024058
BV10249939,五和,114.060681,22.626833,深圳市,5号线/环中线|10号线,440300024058|900000055265
BV10249938,坂田,114.070852,22.627483,深圳市,5号线/环中线,440300024058
BV10249937,杨美,114.079975,22.626777,深圳市,5号线/环中线,440300024058
BV10244202,上水径,114.105337,22.622046,深圳市,5号线/环中线,440300024058
BV10244199,下水径,114.110662,22.614833,深圳市,5号线/环中线,440300024058
BV10249936,长龙,114.113825,22.608053,深圳市,5号线/环中线,440300024058
BV10247063,百鸽笼,114.13038,22.595442,深圳市,5号线/环中线,440300024058
BV10249934,布心,114.138045,22.580986,深圳市,5号线/环中线,440300024058
BV10249913,太安,114.137119,22.573466,深圳市,5号线/环中线|7号线/西丽线,440300024058|440300024050
BV10249933,怡景,114.140115,22.555856,深圳市,5号线/环中线,440300024058
BV10242465,松岗,113.829631,22.772271,深圳市,6号线|11号线/机场线,440300024046|440300024056
BV10527870,溪头,113.83765,22.774648,深圳市,6号线,440300024046
BV10249897,松岗公园,113.84831,22.77792,深圳市,6号线,440300024046
BV10527879,薯田埔,113.867694,22.780928,深圳市,6号线,440300024046
BV10527869,合水口,113.880928,22.78161,深圳市,6号线,440300024046
BV10249894,公明广场,113.891407,22.777428,深圳市,6号线,440300024046
BV10527872,红花山,113.907292,22.777684,深圳市,6号线,440300024046
BV10527868,楼村,113.923407,22.77591,深圳市,6号线,440300024046
BV10527873,科学公园,113.934115,22.777469,深圳市,6号线,440300024046
BV10527871,光明,113.945166,22.772506,深圳市,6号线,440300024046
BV10895876,光明大街,113.942714,22.761965,深圳市,6号线,440300024046
BV10527878,凤凰城,113.932831,22.747433,深圳市,6号线,440300024046
BV10527877,长圳,113.930926,22.726332,深圳市,6号线,440300024046
BV10527880,上屋,113.938536,22.689097,深圳市,6号线,440300024046
BV10527867,官田,113.949663,22.683253,深圳市,6号线,440300024046
BV10527881,阳台山东,113.991785,22.668097,深圳市,6号线,440300024046
BV10527874,元芬,114.005138,22.656327,深圳市,6号线,440300024046
BV10527875,上芬,114.016637,22.640394,深圳市,6号线,440300024046
BV10793830,梅林关,114.05319,22.594524,深圳市,6号线,440300024046
BV10793829,翰岭,114.068894,22.574179,深圳市,6号线,440300024046
BV10249923,银湖,114.089851,22.568308,深圳市,6号线|9号线/梅林线,440300024046|440300024054
BV10245836,八卦岭,114.094649,22.561941,深圳市,6号线|7号线/西丽线,440300024046|440300024050
BV10879919,体育中心,114.096104,22.554673,深圳市,6号线,440300024046
BV10602481,西丽湖,113.965648,22.593567,深圳市,7号线/西丽线,440300024050
BV10602479,茶光,113.954311,22.574138,深圳市,7号线/西丽线,440300024050
BV10249902,珠光,113.960559,22.56827,深圳市,7号线/西丽线,440300024050
BV10249903,龙井,113.974687,22.56401,深圳市,7号线/西丽线,440300024050
BV10243793,桃源村,113.981962,22.5599,深圳市,7号线/西丽线,440300024050
BV10602474,深云,113.993727,22.556537,深圳市,7号线/西丽线,440300024050
BV10602478,农林,114.018135,22.540411,深圳市,7号线/西丽线,440300024050
BV10243496,上沙,114.035504,22.524612,深圳市,7号线/西丽线,440300024050
BV10585815,沙尾,114.042579,22.520798,深圳市,7号线/西丽线,440300024050
BV10602483,皇岗村,114.059823,22.523138,深圳市,7号线/西丽线,440300024050
BV10243619,皇岗口岸,114.073972,22.521799,深圳市,7号线/西丽线,440300024050
BV10249908,赤尾,114.083598,22.531374,深圳市,7号线/西丽线,440300024050
BV10602476,华强南,114.086825,22.537214,深圳市,7号线/西丽线,440300024050
BV10602475,黄木岗,114.08728,22.555843,深圳市,7号线/西丽线,440300024050
BV10447622,红岭北,114.104315,22.56203,深圳市,7号线/西丽线|9号线/梅林线,440300024050|440300024054
BV10602482,笋岗,114.111295,22.563406,深圳市,7号线/西丽线,440300024050
BV10602477,洪湖,114.122465,22.566056,深圳市,7号线/西丽线,440300024050
BV11291532,梦海,113.898806,22.518925,深圳市,9号线/梅林线,440300024054
BV11291531,怡海,113.903758,22.514933,深圳市,9号线/梅林线,440300024054
BV11291533,荔林,113.913128,22.511903,深圳市,9号线/梅林线,440300024054
BV11291529,南油西,113.918402,22.509074,深圳市,9号线/梅林线,440300024054
BV10724148,南油,113.925664,22.509981,深圳市,9号线/梅林线,440300024054
BV11291534,南山书城,113.928657,22.519355,深圳市,9号线/梅林线,440300024054
BV11291530,深大南,113.935675,22.526016,深圳市,9号线/梅林线,440300024054
BV10724144,粤海门,113.945531,22.532695,深圳市,9号线/梅林线,440300024054
BV11291528,高新南,113.950079,22.532797,深圳市,9号线/梅林线,440300024054
BV10729670,红树湾南,113.971433,22.523023,深圳市,9号线/梅林线|11号线/机场线,440300024054|440300024056
BV10447621,深湾,113.97862,22.523078,深圳市,9号线/梅林线,440300024054
BV10447620,深圳湾公园,113.993114,22.521591,深圳市,9号线/梅林线,440300024054
BV10447625,下沙,114.024334,22.5289,深圳市,9号线/梅林线,440300024054
BV10249927,香梅,114.039683,22.545356,深圳市,9号线/梅林线,440300024054
BV10447619,梅景,114.037934,22.561028,深圳市,9号线/梅林线,440300024054
BV10447624,下梅林,114.041768,22.565672,深圳市,9号线/梅林线,440300024054
BV10447616,梅村,114.052423,22.568443,深圳市,9号线/梅林线,440300024054
BV10447623,孖岭,114.067778,22.568458,深圳市,9号线/梅林线|10号线,440300024054|900000055265
BV10447617,泥岗,114.097634,22.567804,深圳市,9号线/梅林线,440300024054
BV10249922,园岭,114.104497,22.556288,深圳市,9号线/梅林线,440300024054
BV10738554,红岭南,114.104749,22.539943,深圳市,9号线/梅林线,440300024054
BV10243878,鹿丹村,114.108625,22.535708,深圳市,9号线/梅林线,440300024054
BV10447615,人民南,114.118154,22.535514,深圳市,9号线/梅林线,440300024054
BV10447618,向西村,114.125767,22.539792,深圳市,9号线/梅林线,440300024054
BV10447626,文锦,114.130962,22.542259,深圳市,9号线/梅林线,440300024054
BV10672433,双拥街,114.132978,22.698648,深圳市,10号线,900000055265
BV10672444,平湖,114.125805,22.69367,深圳市,10号线,900000055265
BV10672440,禾花,114.121064,22.686028,深圳市,10号线,900000055265
BV10672443,华南城,114.12225,22.675974,深圳市,10号线,900000055265
BV10672432,木古,114.122502,22.669328,深圳市,10号线,900000055265
BV10895880,上李朗,114.127071,22.654048,深圳市,10号线,900000055265
BV10672446,凉帽山,114.118964,22.646323,深圳市,10号线,900000055265
BV10672437,甘坑,114.105826,22.647828,深圳市,10号线,900000055265
BV10672442,雪象,114.078964,22.656909,深圳市,10号线,900000055265
BV10672435,岗头,114.071895,22.657067,深圳市,10号线,900000055265
BV10672431,华为,114.067171,22.650445,深圳市,10号线,900000055265
BV10672439,贝尔路,114.066366,22.641719,深圳市,10号线,900000055265
BV10672436,坂田北,114.063369,22.634919,深圳市,10号线,900000055265
BV10672441,光雅园,114.060892,22.616397,深圳市,10号线,900000055265
BV10700463,南坑,114.060546,22.610894,深圳市,10号线,900000055265
BV10672445,雅宝,114.060309,22.604541,深圳市,10号线,900000055265
BV10672438,冬瓜岭,114.067592,22.560437,深圳市,10号线,900000055265
BV10527861,碧头,113.819959,22.784486,深圳市,11号线/机场线,440300024056
BV10527863,后亭,113.826874,22.752625,深圳市,11号线/机场线,440300024056
BV10527866,沙井,113.824434,22.730849,深圳市,11号线/机场线,440300024056
BV10729454,马安山,113.817005,22.716998,深圳市,11号线/机场线,440300024056
BV10527860,塘尾,113.817878,22.702075,深圳市,11号线/机场线,440300024056
BV10527858,桥头,113.811001,22.688133,深圳市,11号线/机场线,440300024056
BV10249452,福永,113.806076,22.673562,深圳市,11号线/机场线,440300024056
BV10680166,机场北,113.798179,22.651128,深圳市,11号线/机场线|20号线,440300024056|900000075925
BV10527864,机场,113.813663,22.624026,深圳市,11号线/机场线,440300024056
BV10527859,碧海湾,113.856093,22.575073,深圳市,11号线/机场线,440300024056
BV10527865,宝安,113.880396,22.55459,深圳市,11号线/机场线,440300024056
BV10244676,南山,113.923596,22.524022,深圳市,11号线/机场线,440300024056
BV10861135,国展南,113.778426,22.683755,深圳市,20号线,900000075925
BV10996669,国展,113.777878,22.696529,深圳市,20号线,900000075925
BV10996657,国展北,113.776899,22.703129,深圳市,20号线,900000075925
BV10861136,会展城,113.769777,22.712135,深圳市,20号线,900000075925
